Volcano_Number,geo_x,geo_y,Volcano_Name,Primary_Volcano_Type,Country,Region,Latitude,Longitude,Elevation,Tectonic_Setting,Evidence_Category,Major_Rock_Type,Erupting,Last_Activity_Year,geometry
241040,177.18,-37.52,Whakaari/White Island,Stratovolcano(es),New Zealand,Tonga-Kermadec Volcanic Regions,-37.52,177.18,294,Subduction zone / Continental crust (> 25 km),Eruption Observed,Andesite / Basaltic Andesite,True,2019.0,POINT (177.18 -37.52)
241050,176.5069,-38.1569,Okataina,Lava dome(s),New Zealand,Tonga-Kermadec Volcanic Regions,-38.1569,176.5069,1111,Subduction zone / Continental crust (> 25 km),Eruption Observed,Rhyolite,True,1981.0,POINT (176.5069 -38.1569)
241080,175.632,-39.157,Tongariro,Stratovolcano(es),New Zealand,Tonga-Kermadec Volcanic Regions,-39.157,175.632,1978,Subduction zone / Continental crust (> 25 km),Eruption Observed,Andesite / Basaltic Andesite,True,2012.0,POINT (175.632 -39.157)
241100,175.57,-39.28,Ruapehu,Stratovolcano(es),New Zealand,Tonga-Kermadec Volcanic Regions,-39.28,175.57,2797,Subduction zone / Continental crust (> 25 km),Eruption Observed,Andesite / Basaltic Andesite,True,2007.0,POINT (175.57 -39.28)
242030,182.08,-29.27,Raoul Island,Stratovolcano(es),New Zealand,Tonga-Kermadec Volcanic Regions,-29.27,-177.92,516,Subduction zone / Oceanic crust (< 15 km),Eruption Observed,Andesite / Basaltic Andesite,True,2006.0,POINT (-177.92 -29.27)
242050,182.812,-25.887,Monowai,Stratovolcano(es),New Zealand,Tonga-Kermadec Volcanic Regions,-25.887,-177.188,-132,Subduction zone / Oceanic crust (< 15 km),Eruption Observed,Basalt / Picro-Basalt,True,2014.0,POINT (-177.188 -25.887)
243030,184.45,-20.852,Unnamed,Stratovolcano(es),Tonga,Tonga-Kermadec Volcanic Regions,-20.852,-175.55,-296,Subduction zone / Oceanic crust (< 15 km),Eruption Observed,unknown,True,1999.0,POINT (-175.55 -20.852)
243040,184.6159,-20.5532,Hunga Tonga-Hunga Ha'apai,Caldera,Tonga,Tonga-Kermadec Volcanic Regions,-20.5532,-175.3841,114,Subduction zone / Oceanic crust (< 15 km),Eruption Observed,Andesite / Basaltic Andesite,True,2015.0,POINT (-175.3841 -20.5532)
243060,184.93,-19.75,Tofua,Caldera,Tonga,Tonga-Kermadec Volcanic Regions,-19.75,-175.07,515,Subduction zone / Oceanic crust (< 15 km),Eruption Observed,Andesite / Basaltic Andesite,True,2014.0,POINT (-175.07 -19.75)
243070,185.13,-19.18,Lateiki,Stratovolcano(es),Tonga,Tonga-Kermadec Volcanic Regions,-19.18,-174.87,43,Subduction zone / Oceanic crust (< 15 km),Eruption Observed,Dacite,True,2019.0,POINT (-174.87 -19.18)
243080,185.225,-18.992,Home Reef,Stratovolcano(es),Tonga,Tonga-Kermadec Volcanic Regions,-18.992,-174.775,-10,Subduction zone / Oceanic crust (< 15 km),Eruption Observed,Dacite,True,2006.0,POINT (-174.775 -18.992)
243091,185.635,-18.325,Unnamed,Stratovolcano(es),Tonga,Tonga-Kermadec Volcanic Regions,-18.325,-174.365,-40,Subduction zone / Oceanic crust (< 15 km),Eruption Observed,Dacite,True,2019.0,POINT (-174.365 -18.325)
243102,186.33,-15.62,Curacoa,Complex,Tonga,Tonga-Kermadec Volcanic Regions,-15.62,-173.67,-33,Subduction zone / Oceanic crust (< 15 km),Eruption Observed,Dacite,True,1979.0,POINT (-173.67 -15.62)
243100,185.683,-18.023,Fonualei,Stratovolcano(es),Tonga,Tonga-Kermadec Volcanic Regions,-18.023,-174.317,188,Subduction zone / Oceanic crust (< 15 km),Eruption Observed,Dacite,True,1974.0,POINT (-174.317 -18.023)
251002,144.588,-3.608,Kadovar,Stratovolcano(es),Papua New Guinea,Southwest Pacific Volcanic Regions,-3.608,144.588,365,Subduction zone / Continental crust (> 25 km),Evidence Credible,Andesite / Basaltic Andesite,True,2023.0,POINT (144.588 -3.608)
251020,145.037,-4.08,Manam,Stratovolcano(es),Papua New Guinea,Southwest Pacific Volcanic Regions,-4.08,145.037,1807,Subduction zone / Continental crust (> 25 km),Eruption Observed,Basalt / Picro-Basalt,True,2024.0,POINT (145.037 -4.08)
251030,145.976,-4.647,Karkar,Stratovolcano(es),Papua New Guinea,Southwest Pacific Volcanic Regions,-4.647,145.976,1839,Subduction zone / Continental crust (> 25 km),Eruption Observed,Andesite / Basaltic Andesite,True,2014.0,POINT (145.976 -4.647)
251050,147.12,-5.358,Long Island,Complex,Papua New Guinea,Southwest Pacific Volcanic Regions,-5.358,147.12,1280,Subduction zone / Continental crust (> 25 km),Eruption Observed,Andesite / Basaltic Andesite,True,1993.0,POINT (147.12 -5.358)
251070,148.115,-5.519,Ritter Island,Stratovolcano(es),Papua New Guinea,Southwest Pacific Volcanic Regions,-5.519,148.115,75,Subduction zone / Continental crust (> 25 km),Eruption Observed,Basalt / Picro-Basalt,True,2007.0,POINT (148.115 -5.519)
252010,148.42,-5.525,Langila,Complex,Papua New Guinea,Southwest Pacific Volcanic Regions,-5.525,148.42,1330,Subduction zone / Continental crust (> 25 km),Eruption Observed,Basalt / Picro-Basalt,True,2024.0,POINT (148.42 -5.525)
252070,150.027,-5.416,Krummel-Garbuna-Welcker,Stratovolcano(es),Papua New Guinea,Southwest Pacific Volcanic Regions,-5.416,150.027,564,Subduction zone / Continental crust (> 25 km),Eruption Observed,Andesite / Basaltic Andesite,True,2008.0,POINT (150.027 -5.416)
252080,150.5161,-5.5745,Witori,Caldera,Papua New Guinea,Southwest Pacific Volcanic Regions,-5.5745,150.5161,724,Subduction zone / Continental crust (> 25 km),Eruption Observed,Dacite,True,2012.0,POINT (150.5161 -5.5745)
252120,151.33,-5.05,Ulawun,Stratovolcano(es),Papua New Guinea,Southwest Pacific Volcanic Regions,-5.05,151.33,2334,Subduction zone / Continental crust (> 25 km),Eruption Observed,Basalt / Picro-Basalt,True,2019.0,POINT (151.33 -5.05)
252140,152.1937,-4.2459,Rabaul,Caldera,Papua New Guinea,Southwest Pacific Volcanic Regions,-4.2459,152.1937,688,Subduction zone / Continental crust (> 25 km),Eruption Observed,Dacite,True,2014.0,POINT (152.1937 -4.2459)
255020,155.196,-6.137,Bagana,Cone(s),Papua New Guinea,Southwest Pacific Volcanic Regions,-6.137,155.196,1855,Subduction zone / Crustal thickness unknown,Eruption Observed,Andesite / Basaltic Andesite,True,2024.0,POINT (155.196 -6.137)
255060,157.979,-8.991,Kavachi,Stratovolcano(es),Solomon Islands,Southwest Pacific Volcanic Regions,-8.991,157.979,-20,Subduction zone / Crustal thickness unknown,Eruption Observed,Andesite / Basaltic Andesite,True,2014.0,POINT (157.979 -8.991)
256010,165.804,-10.386,Tinakula,Stratovolcano(es),Solomon Islands,Southwest Pacific Volcanic Regions,-10.386,165.804,796,Subduction zone / Crustal thickness unknown,Eruption Observed,Andesite / Basaltic Andesite,True,2024.0,POINT (165.804 -10.386)
257020,167.514,-14.281,Gaua,Stratovolcano(es),Vanuatu,Southwest Pacific Volcanic Regions,-14.281,167.514,729,Subduction zone / Intermediate crust (15-25 km),Eruption Observed,Andesite / Basaltic Andesite,True,2011.0,POINT (167.514 -14.281)
257030,167.835,-15.389,Ambae,Shield(s),Vanuatu,Southwest Pacific Volcanic Regions,-15.389,167.835,1496,Subduction zone / Intermediate crust (15-25 km),Eruption Observed,Basalt / Picro-Basalt,True,2018.0,POINT (167.835 -15.389)
257040,168.12,-16.25,Ambrym,Shield(s),Vanuatu,Southwest Pacific Volcanic Regions,-16.25,168.12,1334,Subduction zone / Intermediate crust (15-25 km),Eruption Observed,Basalt / Picro-Basalt,True,2018.0,POINT (168.12 -16.25)
257050,168.346,-16.507,Lopevi,Stratovolcano(es),Vanuatu,Southwest Pacific Volcanic Regions,-16.507,168.346,1413,Subduction zone / Intermediate crust (15-25 km),Eruption Observed,Basalt / Picro-Basalt,True,2008.0,POINT (168.346 -16.507)
257060,168.3893,-16.6797,East Epi,Stratovolcano(es),Vanuatu,Southwest Pacific Volcanic Regions,-16.6797,168.3893,833,Subduction zone / Intermediate crust (15-25 km),Eruption Observed,Basalt / Picro-Basalt,True,2004.0,POINT (168.3893 -16.6797)
257070,168.5227,-16.8304,Kuwae,Caldera,Vanuatu,Southwest Pacific Volcanic Regions,-16.8304,168.5227,-2,Subduction zone / Intermediate crust (15-25 km),Eruption Observed,Basalt / Picro-Basalt,True,1971.0,POINT (168.5227 -16.8304)
258001,170.13,-20.957,Gemini-Oscostar,Stratovolcano(es),Vanuatu,Southwest Pacific Volcanic Regions,-20.957,170.13,-33,Rift zone / Oceanic crust (< 15 km),Eruption Observed,Basalt / Picro-Basalt,True,1996.0,POINT (170.13 -20.957)
258010,171.32,-22.33,Matthew Island,Stratovolcano(es),France - claimed by Vanuatu,Southwest Pacific Volcanic Regions,-22.33,171.32,177,Subduction zone / Crustal thickness unknown,Eruption Observed,Andesite / Basaltic Andesite,True,1976.0,POINT (171.32 -22.33)
265090,129.881,-4.523,Banda Api,Caldera,Indonesia,Sunda-Banda Volcanic Regions,-4.523,129.881,596,Subduction zone / Oceanic crust (< 15 km),Eruption Observed,Dacite,True,1988.0,POINT (129.881 -4.523)
266010,121.601,-0.162,Colo,Stratovolcano(es),Indonesia,Western Pacific Volcanic Regions,-0.162,121.601,404,Subduction zone / Continental crust (> 25 km),Eruption Observed,Trachyandesite / Basaltic Trachyandesite,True,1983.0,POINT (121.601 -0.162)
266020,124.42,0.75,Ambang,Complex,Indonesia,Western Pacific Volcanic Regions,0.75,124.42,1795,Subduction zone / Continental crust (> 25 km),Eruption Observed,Andesite / Basaltic Andesite,True,2005.0,POINT (124.42 0.75)
266030,124.737,1.112,Soputan,Stratovolcano(es),Indonesia,Western Pacific Volcanic Regions,1.112,124.737,1785,Subduction zone / Continental crust (> 25 km),Eruption Observed,Andesite / Basaltic Andesite,True,2018.0,POINT (124.737 1.112)
266100,124.792,1.358,Lokon-Empung,Stratovolcano(es),Indonesia,Western Pacific Volcanic Regions,1.358,124.792,1580,Subduction zone / Continental crust (> 25 km),Eruption Observed,Basalt / Picro-Basalt,True,2015.0,POINT (124.792 1.358)
267010,125.37,2.3,Ruang,Stratovolcano(es),Indonesia,Western Pacific Volcanic Regions,2.3,125.37,725,Subduction zone / Oceanic crust (< 15 km),Eruption Observed,Andesite / Basaltic Andesite,True,2002.0,POINT (125.37 2.3)
267020,125.407,2.781,Karangetang,Stratovolcano(es),Indonesia,Western Pacific Volcanic Regions,2.781,125.407,1797,Subduction zone / Oceanic crust (< 15 km),Eruption Observed,Andesite / Basaltic Andesite,True,2021.0,POINT (125.407 2.781)
267040,125.447,3.689,Awu,Stratovolcano(es),Indonesia,Western Pacific Volcanic Regions,3.689,125.447,1318,Subduction zone / Oceanic crust (< 15 km),Eruption Observed,Andesite / Basaltic Andesite,True,2004.0,POINT (125.447 3.689)
268030,127.63,1.488,Ibu,Stratovolcano(es),Indonesia,Western Pacific Volcanic Regions,1.488,127.63,1325,Subduction zone / Oceanic crust (< 15 km),Eruption Observed,Andesite / Basaltic Andesite,True,2024.0,POINT (127.63 1.488)
268040,127.53,1.38,Gamkonora,Stratovolcano(es),Indonesia,Western Pacific Volcanic Regions,1.38,127.53,1635,Subduction zone / Oceanic crust (< 15 km),Eruption Observed,Andesite / Basaltic Andesite,True,2013.0,POINT (127.53 1.38)
268060,127.3322,0.81,Gamalama,Stratovolcano(es),Indonesia,Western Pacific Volcanic Regions,0.81,127.3322,1714,Subduction zone / Oceanic crust (< 15 km),Eruption Observed,Andesite / Basaltic Andesite,True,2018.0,POINT (127.3322 0.81)
268070,127.4,0.32,Kie Besi,Stratovolcano(es),Indonesia,Western Pacific Volcanic Regions,0.32,127.4,1357,Subduction zone / Oceanic crust (< 15 km),Eruption Observed,Andesite / Basaltic Andesite,True,1988.0,POINT (127.4 0.32)
272020,123.13,10.4096,Kanlaon,Stratovolcano(es),Philippines,Western Pacific Volcanic Regions,10.4096,123.13,2422,Subduction zone / Continental crust (> 25 km),Eruption Observed,Andesite / Basaltic Andesite,True,2017.0,POINT (123.13 10.4096)
273010,124.056,12.769,Bulusan,Stratovolcano(es),Philippines,Western Pacific Volcanic Regions,12.769,124.056,1535,Subduction zone / Continental crust (> 25 km),Eruption Observed,Andesite / Basaltic Andesite,True,2017.0,POINT (124.056 12.769)
273030,123.685,13.257,Mayon,Stratovolcano(es),Philippines,Western Pacific Volcanic Regions,13.257,123.685,2462,Subduction zone / Continental crust (> 25 km),Eruption Observed,Andesite / Basaltic Andesite,True,2019.0,POINT (123.685 13.257)
273070,120.9975,14.0106,Taal,Caldera,Philippines,Western Pacific Volcanic Regions,14.0106,120.9975,311,Subduction zone / Continental crust (> 25 km),Eruption Observed,Andesite / Basaltic Andesite,True,1977.0,POINT (120.9975 14.0106)
273083,120.35,15.13,Pinatubo,Stratovolcano(es),Philippines,Western Pacific Volcanic Regions,15.13,120.35,1486,Subduction zone / Continental crust (> 25 km),Eruption Observed,Dacite,True,1993.0,POINT (120.35 15.13)
274020,122.202,19.077,Didicas,Compound,Philippines,Western Pacific Volcanic Regions,19.077,122.202,228,Subduction zone / Crustal thickness unknown,Eruption Observed,Andesite / Basaltic Andesite,True,1978.0,POINT (122.202 19.077)
282030,129.714,29.638,Suwanosejima,Stratovolcano(es),Japan,Western Pacific Volcanic Regions,29.638,129.714,796,Subduction zone / Oceanic crust (< 15 km),Eruption Observed,Andesite / Basaltic Andesite,True,2024.0,POINT (129.714 29.638)
282050,130.217,30.443,Kuchinoerabujima,Stratovolcano(es),Japan,Western Pacific Volcanic Regions,30.443,130.217,657,Subduction zone / Oceanic crust (< 15 km),Eruption Observed,Andesite / Basaltic Andesite,True,2019.0,POINT (130.217 30.443)
282060,130.305,30.793,Kikai,Caldera,Japan,Western Pacific Volcanic Regions,30.793,130.305,704,Subduction zone / Oceanic crust (< 15 km),Eruption Observed,Rhyolite,True,2019.0,POINT (130.305 30.793)
282080,130.6589,31.5772,Aira,Caldera,Japan,Western Pacific Volcanic Regions,31.5772,130.6589,1117,Subduction zone / Continental crust (> 25 km),Eruption Observed,Andesite / Basaltic Andesite,True,2024.0,POINT (130.6589 31.5772)
282090,130.862,31.934,Kirishimayama,Shield(s),Japan,Western Pacific Volcanic Regions,31.934,130.862,1700,Subduction zone / Continental crust (> 25 km),Eruption Observed,Andesite / Basaltic Andesite,True,2018.0,POINT (130.862 31.934)
282100,130.299,32.761,Unzendake,Complex,Japan,Western Pacific Volcanic Regions,32.761,130.299,1483,Subduction zone / Continental crust (> 25 km),Eruption Observed,Andesite / Basaltic Andesite,True,1996.0,POINT (130.299 32.761)
282110,131.085,32.8849,Asosan,Caldera,Japan,Western Pacific Volcanic Regions,32.8849,131.085,1592,Subduction zone / Continental crust (> 25 km),Eruption Observed,Andesite / Basaltic Andesite,True,2020.0,POINT (131.085 32.8849)
282120,131.249,33.086,Kujusan,Stratovolcano(es),Japan,Western Pacific Volcanic Regions,33.086,131.249,1791,Subduction zone / Continental crust (> 25 km),Eruption Observed,Andesite / Basaltic Andesite,True,1996.0,POINT (131.249 33.086)
283010,139.098,34.9,Izu-Tobu,Cone(s),Japan,Northwest Pacific Volcanic Regions,34.9,139.098,1406,Subduction zone / Continental crust (> 25 km),Eruption Observed,Basalt / Picro-Basalt,True,1989.0,POINT (139.098 34.9)
283020,139.021,35.233,Hakoneyama,Complex,Japan,Northwest Pacific Volcanic Regions,35.233,139.021,1438,Subduction zone / Continental crust (> 25 km),Eruption Dated,Andesite / Basaltic Andesite,True,2015.0,POINT (139.021 35.233)
283040,137.48,35.893,Ontakesan,Complex,Japan,Western Pacific Volcanic Regions,35.893,137.48,3067,Subduction zone / Continental crust (> 25 km),Eruption Observed,Andesite / Basaltic Andesite,True,2014.0,POINT (137.48 35.893)
283070,137.587,36.227,Yakedake,Stratovolcano(es),Japan,Western Pacific Volcanic Regions,36.227,137.587,2455,Subduction zone / Continental crust (> 25 km),Eruption Observed,Andesite / Basaltic Andesite,True,1995.0,POINT (137.587 36.227)
283090,138.036,36.921,Niigata-Yakeyama,Lava dome(s),Japan,Northwest Pacific Volcanic Regions,36.921,138.036,2400,Subduction zone / Continental crust (> 25 km),Eruption Observed,Andesite / Basaltic Andesite,True,1998.0,POINT (138.036 36.921)
283110,138.523,36.406,Asamayama,Complex,Japan,Northwest Pacific Volcanic Regions,36.406,138.523,2568,Subduction zone / Continental crust (> 25 km),Eruption Observed,Andesite / Basaltic Andesite,True,2019.0,POINT (138.523 36.406)
283120,138.528,36.618,Kusatsu-Shiranesan,Stratovolcano(es),Japan,Northwest Pacific Volcanic Regions,36.618,138.528,2165,Subduction zone / Continental crust (> 25 km),Eruption Observed,Andesite / Basaltic Andesite,True,2018.0,POINT (138.528 36.618)
283170,140.281,37.647,Adatarayama,Stratovolcano(es),Japan,Northwest Pacific Volcanic Regions,37.647,140.281,1728,Subduction zone / Continental crust (> 25 km),Eruption Observed,Andesite / Basaltic Andesite,True,1996.0,POINT (140.281 37.647)
283180,140.244,37.735,Azumayama,Stratovolcano(es),Japan,Northwest Pacific Volcanic Regions,37.735,140.244,1949,Subduction zone / Continental crust (> 25 km),Eruption Observed,Andesite / Basaltic Andesite,True,1977.0,POINT (140.244 37.735)
283220,140.049,39.099,Chokaisan,Stratovolcano(es),Japan,Northwest Pacific Volcanic Regions,39.099,140.049,2236,Subduction zone / Continental crust (> 25 km),Eruption Observed,Andesite / Basaltic Andesite,True,1974.0,POINT (140.049 39.099)
283230,140.799,39.761,Akita-Komagatake,Stratovolcano(es),Japan,Northwest Pacific Volcanic Regions,39.761,140.799,1637,Subduction zone / Continental crust (> 25 km),Eruption Observed,Basalt / Picro-Basalt,True,1971.0,POINT (140.799 39.761)
283260,140.757,39.964,Akita-Yakeyama,Stratovolcano(es),Japan,Northwest Pacific Volcanic Regions,39.964,140.757,1366,Subduction zone / Continental crust (> 25 km),Eruption Observed,Andesite / Basaltic Andesite,True,1997.0,POINT (140.757 39.964)
284010,139.394,34.724,Izu-Oshima,Stratovolcano(es),Japan,Northwest Pacific Volcanic Regions,34.724,139.394,746,Subduction zone / Oceanic crust (< 15 km),Eruption Observed,Basalt / Picro-Basalt,True,1990.0,POINT (139.394 34.724)
284040,139.526,34.094,Miyakejima,Stratovolcano(es),Japan,Northwest Pacific Volcanic Regions,34.094,139.526,775,Subduction zone / Oceanic crust (< 15 km),Eruption Observed,Basalt / Picro-Basalt,True,2010.0,POINT (139.526 34.094)
284070,139.918,31.888,Myojinsho,Caldera,Japan,Northwest Pacific Volcanic Regions,31.888,139.918,11,Subduction zone / Oceanic crust (< 15 km),Eruption Observed,Dacite,True,1970.0,POINT (139.918 31.888)
284096,140.874,27.247,Nishinoshima,Caldera,Japan,Northwest Pacific Volcanic Regions,27.247,140.874,100,Subduction zone / Crustal thickness unknown,Eruption Observed,Andesite / Basaltic Andesite,True,2020.0,POINT (140.874 27.247)
284090,140.303,30.484,Izu-Torishima,Stratovolcano(es),Japan,Northwest Pacific Volcanic Regions,30.484,140.303,394,Subduction zone / Oceanic crust (< 15 km),Eruption Observed,Basalt / Picro-Basalt,True,2013.0,POINT (140.303 30.484)
284100,141.0955,26.1217,Kaitoku Seamount,Stratovolcano(es),Japan,Northwest Pacific Volcanic Regions,26.1217,141.0955,-95,Subduction zone / Crustal thickness unknown,Eruption Observed,Basalt / Picro-Basalt,True,1984.0,POINT (141.0955 26.1217)
284121,141.417,24.417,Kita-Fukutokutai,Stratovolcano(es),Japan,Northwest Pacific Volcanic Regions,24.417,141.417,-73,Subduction zone / Crustal thickness unknown,Eruption Observed,unknown,True,1988.0,POINT (141.417 24.417)
284120,141.289,24.751,Ioto,Caldera,Japan,Northwest Pacific Volcanic Regions,24.751,141.289,169,Subduction zone / Crustal thickness unknown,Eruption Observed,Trachyandesite / Basaltic Trachyandesite,True,2018.0,POINT (141.289 24.751)
284133,143.47,21.93,Fukujin,Stratovolcano(es),United States,Northwest Pacific Volcanic Regions,21.93,143.47,-217,Subduction zone / Crustal thickness unknown,Eruption Observed,Andesite / Basaltic Andesite,True,1974.0,POINT (143.47 21.93)
284130,141.481,24.285,Fukutoku-Oka-no-Ba,Cone(s),Japan,Northwest Pacific Volcanic Regions,24.285,141.481,-29,Subduction zone / Crustal thickness unknown,Eruption Observed,Trachyandesite / Basaltic Trachyandesite,True,2010.0,POINT (141.481 24.285)
284141,145.03,20.42,Ahyi,Stratovolcano(es),United States,Northwest Pacific Volcanic Regions,20.42,145.03,-75,Subduction zone / Crustal thickness unknown,Eruption Dated,Andesite / Basaltic Andesite,True,2014.0,POINT (145.03 20.42)
284170,145.8,18.13,Pagan,Stratovolcano(es),United States,Northwest Pacific Volcanic Regions,18.13,145.8,570,Subduction zone / Crustal thickness unknown,Eruption Observed,Basalt / Picro-Basalt,True,2012.0,POINT (145.8 18.13)
284202,145.572,15.605,Ruby,Stratovolcano(es),United States,Northwest Pacific Volcanic Regions,15.605,145.572,-174,Subduction zone / Crustal thickness unknown,Eruption Observed,Basalt / Picro-Basalt,True,1995.0,POINT (145.572 15.605)
284200,145.67,16.35,Anatahan,Stratovolcano(es),United States,Northwest Pacific Volcanic Regions,16.35,145.67,790,Subduction zone / Crustal thickness unknown,Eruption Observed,Andesite / Basaltic Andesite,True,2008.0,POINT (145.67 16.35)
285020,140.677,42.063,Hokkaido-Komagatake,Stratovolcano(es),Japan,Northwest Pacific Volcanic Regions,42.063,140.677,1131,Subduction zone / Continental crust (> 25 km),Eruption Observed,Andesite / Basaltic Andesite,True,2000.0,POINT (140.677 42.063)
285030,140.839,42.544,Toya,Stratovolcano(es),Japan,Northwest Pacific Volcanic Regions,42.544,140.839,733,Subduction zone / Continental crust (> 25 km),Eruption Observed,Basalt / Picro-Basalt,True,2001.0,POINT (140.839 42.544)
285040,141.38,42.688,Shikotsu,Caldera,Japan,Northwest Pacific Volcanic Regions,42.688,141.38,1320,Subduction zone / Continental crust (> 25 km),Eruption Observed,Andesite / Basaltic Andesite,True,1981.0,POINT (141.38 42.688)
285050,142.686,43.418,Tokachidake,Stratovolcano(es),Japan,Northwest Pacific Volcanic Regions,43.418,142.686,2077,Subduction zone / Continental crust (> 25 km),Eruption Observed,Andesite / Basaltic Andesite,True,2004.0,POINT (142.686 43.418)
285070,144.013,43.384,Akan,Caldera,Japan,Northwest Pacific Volcanic Regions,43.384,144.013,1499,Subduction zone / Continental crust (> 25 km),Eruption Observed,Andesite / Basaltic Andesite,True,2008.0,POINT (144.013 43.384)
290030,146.252,44.353,Chachadake [Tiatia],Stratovolcano(es),Japan - administered by Russia,Northwest Pacific Volcanic Regions,44.353,146.252,1822,Subduction zone / Intermediate crust (15-25 km),Eruption Observed,Basalt / Picro-Basalt,True,1982.0,POINT (146.252 44.353)
290070,147.871,45.012,Etorofu-Yakeyama [Grozny Group],Complex,Japan - administered by Russia,Northwest Pacific Volcanic Regions,45.012,147.871,1158,Subduction zone / Intermediate crust (15-25 km),Eruption Observed,Andesite / Basaltic Andesite,True,2013.0,POINT (147.871 45.012)
290100,148.838,45.389,Moyorodake [Medvezhia],Stratovolcano(es),Japan - administered by Russia,Northwest Pacific Volcanic Regions,45.389,148.838,1124,Subduction zone / Intermediate crust (15-25 km),Eruption Observed,Andesite / Basaltic Andesite,True,1999.0,POINT (148.838 45.389)
290120,150.083,46.042,Kolokol Group,Stratovolcano(es),Russia,Northwest Pacific Volcanic Regions,46.042,150.083,1328,Subduction zone / Intermediate crust (15-25 km),Eruption Observed,Andesite / Basaltic Andesite,True,2009.0,POINT (150.083 46.042)
290150,150.871,46.532,Chirpoi,Caldera,Russia,Northwest Pacific Volcanic Regions,46.532,150.871,742,Subduction zone / Oceanic crust (< 15 km),Eruption Observed,Andesite / Basaltic Andesite,True,1982.0,POINT (150.871 46.532)
290200,152.475,47.35,Ketoi,Stratovolcano(es),Russia,Northwest Pacific Volcanic Regions,47.35,152.475,1172,Subduction zone / Oceanic crust (< 15 km),Eruption Observed,Andesite / Basaltic Andesite,True,2018.0,POINT (152.475 47.35)
290240,153.2,48.092,Sarychev Peak,Stratovolcano(es),Russia,Northwest Pacific Volcanic Regions,48.092,153.2,1496,Subduction zone / Intermediate crust (15-25 km),Eruption Observed,Andesite / Basaltic Andesite,True,2019.0,POINT (153.2 48.092)
290250,153.25,48.292,Raikoke,Stratovolcano(es),Russia,Northwest Pacific Volcanic Regions,48.292,153.25,551,Subduction zone / Intermediate crust (15-25 km),Eruption Observed,Basalt / Picro-Basalt,True,2019.0,POINT (153.25 48.292)
290260,153.48,48.98,Chirinkotan,Stratovolcano(es),Russia,Northwest Pacific Volcanic Regions,48.98,153.48,724,Subduction zone / Intermediate crust (15-25 km),Eruption Observed,Andesite / Basaltic Andesite,True,2017.0,POINT (153.48 48.98)
290270,153.93,48.958,Ekarma,Stratovolcano(es),Russia,Northwest Pacific Volcanic Regions,48.958,153.93,1170,Subduction zone / Intermediate crust (15-25 km),Eruption Observed,Andesite / Basaltic Andesite,True,2010.0,POINT (153.93 48.958)
290290,154.182,48.873,Sinarka,Stratovolcano(es),Russia,Northwest Pacific Volcanic Regions,48.873,154.182,911,Subduction zone / Intermediate crust (15-25 km),Eruption Observed,Andesite / Basaltic Andesite,True,2014.0,POINT (154.182 48.873)
290360,155.461,50.324,Chikurachki,Stratovolcano(es),Russia,Northwest Pacific Volcanic Regions,50.324,155.461,1781,Subduction zone / Continental crust (> 25 km),Eruption Observed,Basalt / Picro-Basalt,True,2016.0,POINT (155.461 50.324)
290380,156.014,50.686,Ebeko,Stratovolcano(es),Russia,Northwest Pacific Volcanic Regions,50.686,156.014,1103,Subduction zone / Continental crust (> 25 km),Eruption Observed,Andesite / Basaltic Andesite,True,2021.0,POINT (156.014 50.686)
290390,155.565,50.861,Alaid,Stratovolcano(es),Russia,Northwest Pacific Volcanic Regions,50.861,155.565,2285,Subduction zone / Continental crust (> 25 km),Eruption Observed,Basalt / Picro-Basalt,True,2018.0,POINT (155.565 50.861)
300010,156.875,51.306,Kambalny,Stratovolcano(es),Russia,Northwest Pacific Volcanic Regions,51.306,156.875,2116,Subduction zone / Continental crust (> 25 km),Eruption Dated,Basalt / Picro-Basalt,True,2017.0,POINT (156.875 51.306)
300040,157.328,51.577,Zheltovsky,Stratovolcano(es),Russia,Northwest Pacific Volcanic Regions,51.577,157.328,1926,Subduction zone / Continental crust (> 25 km),Eruption Observed,Basalt / Picro-Basalt,True,1972.0,POINT (157.328 51.577)
300060,158.196,52.449,Mutnovsky,Complex,Russia,Northwest Pacific Volcanic Regions,52.449,158.196,2288,Subduction zone / Continental crust (> 25 km),Eruption Observed,Basalt / Picro-Basalt,True,2000.0,POINT (158.196 52.449)
300070,158.0358,52.5549,Gorely,Caldera,Russia,Northwest Pacific Volcanic Regions,52.5549,158.0358,1799,Subduction zone / Continental crust (> 25 km),Eruption Observed,Basalt / Picro-Basalt,True,2010.0,POINT (158.0358 52.5549)
300090,158.712,53.321,Koryaksky,Stratovolcano(es),Russia,Northwest Pacific Volcanic Regions,53.321,158.712,3430,Subduction zone / Continental crust (> 25 km),Eruption Observed,Andesite / Basaltic Andesite,True,2009.0,POINT (158.712 53.321)
300100,158.836,53.256,Avachinsky,Stratovolcano(es),Russia,Northwest Pacific Volcanic Regions,53.256,158.836,2717,Subduction zone / Continental crust (> 25 km),Eruption Observed,Andesite / Basaltic Andesite,True,2001.0,POINT (158.836 53.256)
300125,159.45,53.98,Akademia Nauk,Stratovolcano(es),Russia,Northwest Pacific Volcanic Regions,53.98,159.45,1180,Subduction zone / Continental crust (> 25 km),Eruption Observed,Andesite / Basaltic Andesite,True,1996.0,POINT (159.45 53.98)
300120,159.15,53.589,Zhupanovsky,Compound,Russia,Northwest Pacific Volcanic Regions,53.589,159.15,2899,Subduction zone / Continental crust (> 25 km),Eruption Observed,Andesite / Basaltic Andesite,True,2016.0,POINT (159.15 53.589)
300130,159.443,54.049,Karymsky,Stratovolcano(es),Russia,Northwest Pacific Volcanic Regions,54.049,159.443,1513,Subduction zone / Continental crust (> 25 km),Eruption Observed,Andesite / Basaltic Andesite,True,2019.0,POINT (159.443 54.049)
300230,160.32,55.131,Kizimen,Stratovolcano(es),Russia,Northwest Pacific Volcanic Regions,55.131,160.32,2334,Subduction zone / Continental crust (> 25 km),Eruption Observed,Andesite / Basaltic Andesite,True,2013.0,POINT (160.32 55.131)
300240,160.326,55.832,Tolbachik,Shield(s),Russia,Northwest Pacific Volcanic Regions,55.832,160.326,3611,Subduction zone / Continental crust (> 25 km),Eruption Observed,Basalt / Picro-Basalt,True,2013.0,POINT (160.326 55.832)
300250,160.595,55.972,Bezymianny,Stratovolcano(es),Russia,Northwest Pacific Volcanic Regions,55.972,160.595,2882,Subduction zone / Continental crust (> 25 km),Eruption Observed,Andesite / Basaltic Andesite,True,2021.0,POINT (160.595 55.972)
300260,160.642,56.056,Klyuchevskoy,Stratovolcano(es),Russia,Northwest Pacific Volcanic Regions,56.056,160.642,4754,Subduction zone / Continental crust (> 25 km),Eruption Observed,Basalt / Picro-Basalt,True,2021.0,POINT (160.642 56.056)
300270,161.36,56.653,Sheveluch,Stratovolcano(es),Russia,Northwest Pacific Volcanic Regions,56.653,161.36,3283,Subduction zone / Continental crust (> 25 km),Eruption Observed,Andesite / Basaltic Andesite,True,2024.0,POINT (161.36 56.653)
311020,177.602,52.103,Kiska,Stratovolcano(es),United States,North America Volcanic Regions,52.103,177.602,1220,Subduction zone / Intermediate crust (15-25 km),Eruption Observed,Andesite / Basaltic Andesite,True,1990.0,POINT (177.602 52.103)
311060,179.58,51.93,Semisopochnoi,Stratovolcano(es),United States,North America Volcanic Regions,51.93,179.58,1221,Subduction zone / Intermediate crust (15-25 km),Eruption Observed,Basalt / Picro-Basalt,True,2020.0,POINT (179.58 51.93)
311070,181.206,51.79,Gareloi,Stratovolcano(es),United States,North America Volcanic Regions,51.79,-178.794,1573,Subduction zone / Intermediate crust (15-25 km),Eruption Observed,Basalt / Picro-Basalt,True,1996.0,POINT (-178.794 51.79)
311110,182.832,51.923,Kanaga,Stratovolcano(es),United States,North America Volcanic Regions,51.923,-177.168,1307,Subduction zone / Intermediate crust (15-25 km),Eruption Observed,Andesite / Basaltic Andesite,True,2012.0,POINT (-177.168 51.923)
311120,183.87,52.076,Great Sitkin,Stratovolcano(es),United States,North America Volcanic Regions,52.076,-176.13,1740,Subduction zone / Intermediate crust (15-25 km),Eruption Observed,Andesite / Basaltic Andesite,True,2019.0,POINT (-176.13 52.076)
311130,184.492,52.177,Kasatochi,Stratovolcano(es),United States,North America Volcanic Regions,52.177,-175.508,314,Subduction zone / Intermediate crust (15-25 km),Eruption Observed,Basalt / Picro-Basalt,True,2008.0,POINT (-175.508 52.177)
311160,185.861,52.331,Atka Volcanic Complex,Stratovolcano(es),United States,North America Volcanic Regions,52.331,-174.139,1518,Subduction zone / Intermediate crust (15-25 km),Eruption Observed,Basalt / Picro-Basalt,True,2007.0,POINT (-174.139 52.331)
311180,187.49,52.315,Seguam,Stratovolcano(es),United States,North America Volcanic Regions,52.315,-172.51,1054,Subduction zone / Intermediate crust (15-25 km),Eruption Observed,Andesite / Basaltic Andesite,True,1993.0,POINT (-172.51 52.315)
311190,188.748,52.5,Amukta,Stratovolcano(es),United States,North America Volcanic Regions,52.5,-171.252,1066,Subduction zone / Intermediate crust (15-25 km),Eruption Observed,Andesite / Basaltic Andesite,True,1997.0,POINT (-171.252 52.5)
311240,190.056,52.825,Cleveland,Stratovolcano(es),United States,North America Volcanic Regions,52.825,-169.944,1730,Subduction zone / Intermediate crust (15-25 km),Eruption Observed,Andesite / Basaltic Andesite,True,2019.0,POINT (-169.944 52.825)
311290,191.87,53.43,Okmok,Shield(s),United States,North America Volcanic Regions,53.43,-168.13,1073,Subduction zone / Intermediate crust (15-25 km),Eruption Observed,Basalt / Picro-Basalt,True,2008.0,POINT (-168.13 53.43)
311300,191.97,53.93,Bogoslof,Stratovolcano(es),United States,North America Volcanic Regions,53.93,-168.03,150,Subduction zone / Intermediate crust (15-25 km),Eruption Observed,Trachyandesite / Basaltic Trachyandesite,True,2017.0,POINT (-168.03 53.93)
311310,193.077,53.891,Makushin,Stratovolcano(es),United States,North America Volcanic Regions,53.891,-166.923,1800,Subduction zone / Intermediate crust (15-25 km),Eruption Observed,Andesite / Basaltic Andesite,True,1995.0,POINT (-166.923 53.891)
311320,194.014,54.134,Akutan,Stratovolcano(es),United States,North America Volcanic Regions,54.134,-165.986,1303,Subduction zone / Intermediate crust (15-25 km),Eruption Observed,Basalt / Picro-Basalt,True,1992.0,POINT (-165.986 54.134)
311340,195.35,54.516,Westdahl,Stratovolcano(es),United States,North America Volcanic Regions,54.516,-164.65,1563,Subduction zone / Continental crust (> 25 km),Eruption Observed,Basalt / Picro-Basalt,True,1992.0,POINT (-164.65 54.516)
311360,196.03,54.756,Shishaldin,Stratovolcano(es),United States,North America Volcanic Regions,54.756,-163.97,2857,Subduction zone / Continental crust (> 25 km),Eruption Observed,Basalt / Picro-Basalt,True,2020.0,POINT (-163.97 54.756)
312030,198.106,55.417,Pavlof,Stratovolcano(es),United States,North America Volcanic Regions,55.417,-161.894,2493,Subduction zone / Continental crust (> 25 km),Eruption Observed,Andesite / Basaltic Andesite,True,2016.0,POINT (-161.894 55.417)
312060,200.203,56.011,Kupreanof,Stratovolcano(es),United States,North America Volcanic Regions,56.011,-159.797,1895,Subduction zone / Continental crust (> 25 km),Evidence Uncertain,Andesite / Basaltic Andesite,True,1987.0,POINT (-159.797 56.011)
312070,200.62,56.17,Veniaminof,Stratovolcano(es),United States,North America Volcanic Regions,56.17,-159.38,2507,Subduction zone / Continental crust (> 25 km),Eruption Observed,Andesite / Basaltic Andesite,True,2018.0,POINT (-159.38 56.17)
312110,203.01,57.135,Chiginagak,Stratovolcano(es),United States,North America Volcanic Regions,57.135,-156.99,2221,Subduction zone / Continental crust (> 25 km),Eruption Observed,Andesite / Basaltic Andesite,True,1998.0,POINT (-156.99 57.135)
312131,203.4797,57.8344,Ukinrek Maars,Maar(s),United States,North America Volcanic Regions,57.8344,-156.5203,91,Subduction zone / Continental crust (> 25 km),Eruption Observed,Basalt / Picro-Basalt,True,1977.0,POINT (-156.5203 57.8344)
312160,204.9,58.236,Trident,Stratovolcano(es),United States,North America Volcanic Regions,58.236,-155.1,1864,Subduction zone / Continental crust (> 25 km),Eruption Observed,Andesite / Basaltic Andesite,True,1974.0,POINT (-155.1 58.236)
312260,206.328,58.77,Fourpeaked,Stratovolcano(es),United States,North America Volcanic Regions,58.77,-153.672,2105,Subduction zone / Continental crust (> 25 km),Eruption Observed,Andesite / Basaltic Andesite,True,2006.0,POINT (-153.672 58.77)
313010,206.565,59.3626,Augustine,Lava dome(s),United States,North America Volcanic Regions,59.3626,-153.435,1218,Subduction zone / Continental crust (> 25 km),Eruption Observed,Andesite / Basaltic Andesite,True,2006.0,POINT (-153.435 59.3626)
313030,207.258,60.485,Redoubt,Stratovolcano(es),United States,North America Volcanic Regions,60.485,-152.742,3108,Subduction zone / Continental crust (> 25 km),Eruption Observed,Andesite / Basaltic Andesite,True,2009.0,POINT (-152.742 60.485)
313040,207.749,61.299,Spurr,Stratovolcano(es),United States,North America Volcanic Regions,61.299,-152.251,3374,Subduction zone / Continental crust (> 25 km),Eruption Observed,Andesite / Basaltic Andesite,True,1992.0,POINT (-152.251 61.299)
321050,237.82,46.2,St. Helens,Stratovolcano(es),United States,North America Volcanic Regions,46.2,-122.18,2549,Subduction zone / Continental crust (> 25 km),Eruption Observed,Dacite,True,2008.0,POINT (-122.18 46.2)
341040,256.38,19.514,Colima,Stratovolcano(es),Mexico,Middle America-Caribbean Volcanic Regions,19.514,-103.62,3850,Subduction zone / Continental crust (> 25 km),Eruption Observed,Andesite / Basaltic Andesite,True,2019.0,POINT (-103.62 19.514)
341090,261.378,19.023,Popocatepetl,Stratovolcano(es),Mexico,Middle America-Caribbean Volcanic Regions,19.023,-98.622,5393,Subduction zone / Continental crust (> 25 km),Eruption Observed,Andesite / Basaltic Andesite,True,2024.0,POINT (-98.622 19.023)
341120,266.7703,17.3602,"Chichon, El",Lava dome(s),Mexico,Middle America-Caribbean Volcanic Regions,17.3602,-93.2297,1150,Subduction zone / Continental crust (> 25 km),Eruption Observed,Trachyandesite / Basaltic Trachyandesite,True,1982.0,POINT (-93.2297 17.3602)
341130,267.891,15.132,Tacana,Stratovolcano(es),Mexico-Guatemala,Middle America-Caribbean Volcanic Regions,15.132,-92.109,4064,Subduction zone / Continental crust (> 25 km),Eruption Observed,Andesite / Basaltic Andesite,True,1986.0,POINT (-92.109 15.132)
342080,269.124,14.501,Acatenango,Stratovolcano(es),Guatemala,Middle America-Caribbean Volcanic Regions,14.501,-90.876,3976,Subduction zone / Continental crust (> 25 km),Eruption Observed,Andesite / Basaltic Andesite,True,1972.0,POINT (-90.876 14.501)
342090,269.12,14.473,Fuego,Stratovolcano(es),Guatemala,Middle America-Caribbean Volcanic Regions,14.473,-90.88,3763,Subduction zone / Continental crust (> 25 km),Eruption Observed,Basalt / Picro-Basalt,True,2024.0,POINT (-90.88 14.473)
342110,269.399,14.382,Pacaya,Complex,Guatemala,Middle America-Caribbean Volcanic Regions,14.382,-90.601,2569,Subduction zone / Continental crust (> 25 km),Eruption Observed,Basalt / Picro-Basalt,True,2021.0,POINT (-90.601 14.382)
343020,270.37,13.853,Santa Ana,Stratovolcano(es),El Salvador,Middle America-Caribbean Volcanic Regions,13.853,-89.63,2381,Subduction zone / Continental crust (> 25 km),Eruption Observed,Andesite / Basaltic Andesite,True,2005.0,POINT (-89.63 13.853)
343100,271.731,13.434,San Miguel,Stratovolcano(es),El Salvador,Middle America-Caribbean Volcanic Regions,13.434,-88.269,2130,Subduction zone / Continental crust (> 25 km),Eruption Observed,Andesite / Basaltic Andesite,True,2018.0,POINT (-88.269 13.434)
344020,272.996,12.702,San Cristobal,Stratovolcano(es),Nicaragua,Middle America-Caribbean Volcanic Regions,12.702,-87.004,1745,Subduction zone / Continental crust (> 25 km),Eruption Observed,Basalt / Picro-Basalt,True,2019.0,POINT (-87.004 12.702)
344040,273.15999999999997,12.606,Telica,Stratovolcano(es),Nicaragua,Middle America-Caribbean Volcanic Regions,12.606,-86.84,1036,Subduction zone / Continental crust (> 25 km),Eruption Observed,Basalt / Picro-Basalt,True,2018.0,POINT (-86.84 12.606)
344070,273.298,12.506,"Negro, Cerro",Cone(s),Nicaragua,Middle America-Caribbean Volcanic Regions,12.506,-86.702,728,Subduction zone / Continental crust (> 25 km),Eruption Observed,Basalt / Picro-Basalt,True,1999.0,POINT (-86.702 12.506)
344090,273.461,12.423,Momotombo,Stratovolcano(es),Nicaragua,Middle America-Caribbean Volcanic Regions,12.423,-86.539,1270,Subduction zone / Continental crust (> 25 km),Eruption Observed,Basalt / Picro-Basalt,True,2016.0,POINT (-86.539 12.423)
344100,273.83119999999997,11.9844,Masaya,Caldera,Nicaragua,Middle America-Caribbean Volcanic Regions,11.9844,-86.1688,594,Subduction zone / Continental crust (> 25 km),Eruption Observed,Basalt / Picro-Basalt,True,2024.0,POINT (-86.1688 11.9844)
344120,274.378,11.538,Concepcion,Stratovolcano(es),Nicaragua,Middle America-Caribbean Volcanic Regions,11.538,-85.622,1700,Subduction zone / Continental crust (> 25 km),Eruption Observed,Andesite / Basaltic Andesite,True,2011.0,POINT (-85.622 11.538)
345020,274.676,10.83,Rincon de la Vieja,Complex,Costa Rica,Middle America-Caribbean Volcanic Regions,10.83,-85.324,1916,Subduction zone / Continental crust (> 25 km),Eruption Observed,Andesite / Basaltic Andesite,True,2019.0,POINT (-85.324 10.83)
345033,275.297,10.463,Arenal,Stratovolcano(es),Costa Rica,Middle America-Caribbean Volcanic Regions,10.463,-84.703,1670,Subduction zone / Continental crust (> 25 km),Eruption Observed,Andesite / Basaltic Andesite,True,2010.0,POINT (-84.703 10.463)
345040,275.767,10.2,Poas,Stratovolcano(es),Costa Rica,Middle America-Caribbean Volcanic Regions,10.2,-84.233,2697,Subduction zone / Continental crust (> 25 km),Eruption Observed,Andesite / Basaltic Andesite,True,2019.0,POINT (-84.233 10.2)
345060,276.148,9.979,Irazu,Stratovolcano(es),Costa Rica,Middle America-Caribbean Volcanic Regions,9.979,-83.852,3436,Subduction zone / Continental crust (> 25 km),Eruption Observed,Andesite / Basaltic Andesite,True,1994.0,POINT (-83.852 9.979)
345070,276.233,10.025,Turrialba,Stratovolcano(es),Costa Rica,Middle America-Caribbean Volcanic Regions,10.025,-83.767,3340,Subduction zone / Continental crust (> 25 km),Eruption Observed,Andesite / Basaltic Andesite,True,2019.0,POINT (-83.767 10.025)
351020,284.676,4.892,"Ruiz, Nevado del",Stratovolcano(es),Colombia,South America Volcanic Regions,4.892,-75.324,5279,Subduction zone / Continental crust (> 25 km),Eruption Observed,Andesite / Basaltic Andesite,True,2024.0,POINT (-75.324 4.892)
351050,283.97,2.93,"Huila, Nevado del",Stratovolcano(es),Colombia,South America Volcanic Regions,2.93,-76.03,5364,Subduction zone / Continental crust (> 25 km),Eruption Observed,Andesite / Basaltic Andesite,True,2012.0,POINT (-76.03 2.93)
351060,283.6,2.32,Purace,Stratovolcano(es),Colombia,South America Volcanic Regions,2.32,-76.4,4650,Subduction zone / Continental crust (> 25 km),Eruption Observed,Andesite / Basaltic Andesite,True,1977.0,POINT (-76.4 2.32)
351080,282.63,1.22,Galeras,Complex,Colombia,South America Volcanic Regions,1.22,-77.37,4276,Subduction zone / Continental crust (> 25 km),Eruption Observed,Andesite / Basaltic Andesite,True,2014.0,POINT (-77.37 1.22)
352010,282.344,-0.077,Reventador,Stratovolcano(es),Ecuador,South America Volcanic Regions,-0.077,-77.656,3562,Subduction zone / Continental crust (> 25 km),Eruption Observed,Andesite / Basaltic Andesite,True,2024.0,POINT (-77.656 -0.077)
352020,281.402,-0.171,Guagua Pichincha,Stratovolcano(es),Ecuador,South America Volcanic Regions,-0.171,-78.598,4784,Subduction zone / Continental crust (> 25 km),Eruption Observed,Andesite / Basaltic Andesite,True,2009.0,POINT (-78.598 -0.171)
352050,281.56399999999996,-0.677,Cotopaxi,Stratovolcano(es),Ecuador,South America Volcanic Regions,-0.677,-78.436,5911,Subduction zone / Continental crust (> 25 km),Eruption Observed,Andesite / Basaltic Andesite,True,2016.0,POINT (-78.436 -0.677)
352080,281.558,-1.467,Tungurahua,Stratovolcano(es),Ecuador,South America Volcanic Regions,-1.467,-78.442,5023,Subduction zone / Continental crust (> 25 km),Eruption Observed,Andesite / Basaltic Andesite,True,2016.0,POINT (-78.442 -1.467)
352090,281.659,-2.005,Sangay,Stratovolcano(es),Ecuador,South America Volcanic Regions,-2.005,-78.341,5286,Subduction zone / Continental crust (> 25 km),Eruption Observed,Andesite / Basaltic Andesite,True,2024.0,POINT (-78.341 -2.005)
354006,288.14300000000003,-15.787,Sabancaya,Stratovolcano(es),Peru,South America Volcanic Regions,-15.787,-71.857,5960,Subduction zone / Continental crust (> 25 km),Eruption Observed,Andesite / Basaltic Andesite,True,2024.0,POINT (-71.857 -15.787)
354010,288.591,-16.294,"Misti, El",Stratovolcano(es),Peru,South America Volcanic Regions,-16.294,-71.409,5822,Subduction zone / Continental crust (> 25 km),Eruption Observed,Andesite / Basaltic Andesite,True,1985.0,POINT (-71.409 -16.294)
354020,289.1028,-16.345,Ubinas,Stratovolcano(es),Peru,South America Volcanic Regions,-16.345,-70.8972,5608,Subduction zone / Continental crust (> 25 km),Eruption Observed,Andesite / Basaltic Andesite,True,2019.0,POINT (-70.8972 -16.345)
355040,291.45,-20.73,Irruputuncu,Stratovolcano(es),Chile-Bolivia,South America Volcanic Regions,-20.73,-68.55,5163,Subduction zone / Continental crust (> 25 km),Eruption Observed,Andesite / Basaltic Andesite,True,1995.0,POINT (-68.55 -20.73)
355107,291.946,-24.188,Pular,Stratovolcano(es),Chile,South America Volcanic Regions,-24.188,-68.054,6233,Subduction zone / Continental crust (> 25 km),Evidence Uncertain,Andesite / Basaltic Andesite,True,1990.0,POINT (-68.054 -24.188)
355100,292.27,-23.37,Lascar,Stratovolcano(es),Chile,South America Volcanic Regions,-23.37,-67.73,5592,Subduction zone / Continental crust (> 25 km),Eruption Observed,Andesite / Basaltic Andesite,True,2017.0,POINT (-67.73 -23.37)
355130,291.459,-27.109,"Ojos del Salado, Nevados",Stratovolcano(es),Chile-Argentina,South America Volcanic Regions,-27.109,-68.541,6879,Subduction zone / Continental crust (> 25 km),Eruption Dated,Dacite,True,1993.0,POINT (-68.541 -27.109)
355160,292.217,-24.29,Aracar,Stratovolcano(es),Argentina,South America Volcanic Regions,-24.29,-67.783,6095,Subduction zone / Continental crust (> 25 km),Evidence Credible,Andesite / Basaltic Andesite,True,1993.0,POINT (-67.783 -24.29)
357010,290.203,-33.425,Tupungatito,Stratovolcano(es),Chile-Argentina,South America Volcanic Regions,-33.425,-69.797,5660,Subduction zone / Continental crust (> 25 km),Eruption Observed,Andesite / Basaltic Andesite,True,1987.0,POINT (-69.797 -33.425)
357030,289.648,-34.814,Tinguiririca,Stratovolcano(es),Chile,South America Volcanic Regions,-34.814,-70.352,4280,Subduction zone / Continental crust (> 25 km),Eruption Observed,Andesite / Basaltic Andesite,True,1994.0,POINT (-70.352 -34.814)
357040,289.432,-35.223,Planchon-Peteroa,Stratovolcano(es),Chile,South America Volcanic Regions,-35.223,-70.568,3977,Subduction zone / Continental crust (> 25 km),Eruption Observed,Andesite / Basaltic Andesite,True,2019.0,POINT (-70.568 -35.223)
357070,288.622,-36.868,"Chillan, Nevados de",Stratovolcano(es),Chile,South America Volcanic Regions,-36.868,-71.378,3180,Subduction zone / Continental crust (> 25 km),Eruption Observed,Andesite / Basaltic Andesite,True,2022.0,POINT (-71.378 -36.868)
357091,288.55,-37.92,Callaqui,Stratovolcano(es),Chile,South America Volcanic Regions,-37.92,-71.45,3164,Subduction zone / Continental crust (> 25 km),Eruption Observed,Andesite / Basaltic Andesite,True,1980.0,POINT (-71.45 -37.92)
357090,288.817,-37.856,Copahue,Stratovolcano(es),Chile-Argentina,South America Volcanic Regions,-37.856,-71.183,2953,Subduction zone / Continental crust (> 25 km),Eruption Observed,Trachybasalt / Tephrite Basanite,True,2019.0,POINT (-71.183 -37.856)
357100,288.414,-38.379,Lonquimay,Stratovolcano(es),Chile,South America Volcanic Regions,-38.379,-71.586,2832,Subduction zone / Continental crust (> 25 km),Eruption Observed,Andesite / Basaltic Andesite,True,1990.0,POINT (-71.586 -38.379)
357110,288.271,-38.692,Llaima,Stratovolcano(es),Chile,South America Volcanic Regions,-38.692,-71.729,3125,Subduction zone / Continental crust (> 25 km),Eruption Observed,Basalt / Picro-Basalt,True,2009.0,POINT (-71.729 -38.692)
357120,288.07,-39.42,Villarrica,Stratovolcano(es),Chile,South America Volcanic Regions,-39.42,-71.93,2847,Subduction zone / Continental crust (> 25 km),Eruption Observed,Basalt / Picro-Basalt,True,2024.0,POINT (-71.93 -39.42)
357140,287.93,-40.35,Carran-Los Venados,Cone(s),Chile,South America Volcanic Regions,-40.35,-72.07,1114,Subduction zone / Continental crust (> 25 km),Eruption Observed,Basalt / Picro-Basalt,True,1979.0,POINT (-72.07 -40.35)
357150,287.883,-40.59,Puyehue-Cordon Caulle,Stratovolcano(es),Chile,South America Volcanic Regions,-40.59,-72.117,2236,Subduction zone / Continental crust (> 25 km),Eruption Observed,Andesite / Basaltic Andesite,True,2012.0,POINT (-72.117 -40.59)
358020,287.382,-41.33,Calbuco,Stratovolcano(es),Chile,South America Volcanic Regions,-41.33,-72.618,1974,Subduction zone / Continental crust (> 25 km),Eruption Observed,Andesite / Basaltic Andesite,True,2015.0,POINT (-72.618 -41.33)
358041,287.34860000000003,-42.8349,Chaiten,Caldera,Chile,South America Volcanic Regions,-42.8349,-72.6514,1122,Subduction zone / Continental crust (> 25 km),Eruption Observed,Rhyolite,True,2011.0,POINT (-72.6514 -42.8349)
358057,287.03,-45.9,"Hudson, Cerro",Stratovolcano(es),Chile,South America Volcanic Regions,-45.9,-72.97,1905,Subduction zone / Continental crust (> 25 km),Eruption Observed,Basalt / Picro-Basalt,True,2011.0,POINT (-72.97 -45.9)
358060,286.496,-49.019,Lautaro,Stratovolcano(es),Chile,South America Volcanic Regions,-49.019,-73.504,3542,Subduction zone / Continental crust (> 25 km),Eruption Observed,Dacite,True,1979.0,POINT (-73.504 -49.019)
284193,145.78,16.58,South Sarigan Seamount,Stratovolcano(es),United States,Northwest Pacific Volcanic Regions,16.58,145.78,-184,Subduction zone / Crustal thickness unknown,Eruption Observed,unknown,True,2010.0,POINT (145.78 16.58)
242005,180.967,-31.08,Havre Seamount,Stratovolcano(es),New Zealand,Tonga-Kermadec Volcanic Regions,-31.08,-179.033,-897,Subduction zone / Oceanic crust (< 15 km),Eruption Observed,unknown,True,2012.0,POINT (-179.033 -31.08)
